ori,agency_name,agency_id,state_abbr,division_name,region_name,region_desc,county_name,agency_type_name,nibrs,nibrs_start_date,latitude,longitude
ID0010000,Ada County Sheriff's Office,4530,ID,Mountain,West,Region IV,ADA,County,True,1992-08-01T00:00:00.000Z,43.60671,-116.26885
ID0010100,Boise Police Department,4531,ID,Mountain,West,Region IV,ADA,City,True,1992-05-01T00:00:00.000Z,43.60671,-116.26885
ID001015A,Attorney General,29594,ID,Mountain,West,Region IV,NOT SPECIFIED,Other State Agency,True,2019-04-01T00:00:00.000Z,,
ID0010200,Garden City Police Department,4532,ID,Mountain,West,Region IV,ADA,City,True,1992-01-01T00:00:00.000Z,43.643784,-116.26528
ID0010300,Meridian Police Department,4533,ID,Mountain,West,Region IV,ADA,City,True,1992-01-01T00:00:00.000Z,43.451477,-116.244376
ID0020000,Adams County Sheriff's Office,4535,ID,Mountain,West,Region IV,ADAMS,County,True,1992-01-01T00:00:00.000Z,44.884583,-116.431873
ID0030000,Bannock County Sheriff's Office,4537,ID,Mountain,West,Region IV,BANNOCK,County,True,1992-01-01T00:00:00.000Z,42.692938,-112.228986
ID0030100,Chubbuck Police Department,4538,ID,Mountain,West,Region IV,BANNOCK,City,True,1992-01-01T00:00:00.000Z,42.692938,-112.228986
ID0030200,Pocatello Police Department,4539,ID,Mountain,West,Region IV,BANNOCK,City,True,1992-12-01T00:00:00.000Z,42.692938,-112.228986
ID0030300,Fort Hall Tribal,4540,ID,Mountain,West,Region IV,NOT SPECIFIED,Tribal,True,2021-01-01T00:00:00.000Z,43.216357,-112.399206
ID0040000,Bear Lake County Sheriff's Office,4542,ID,Mountain,West,Region IV,BEAR LAKE,County,True,1993-01-01T00:00:00.000Z,42.285833,-111.327445
ID0040100,Montpelier Police Department,4543,ID,Mountain,West,Region IV,BEAR LAKE,City,True,1992-08-01T00:00:00.000Z,42.285833,-111.327445
ID0050000,Benewah County Sheriff's Office,4544,ID,Mountain,West,Region IV,BENEWAH,County,True,1992-01-01T00:00:00.000Z,47.315243,-116.56676
ID0060000,Bingham County Sheriff's Office,4546,ID,Mountain,West,Region IV,BINGHAM,County,True,1992-01-01T00:00:00.000Z,43.194084,-112.34408
ID0060200,Blackfoot Police Department,4548,ID,Mountain,West,Region IV,BINGHAM,City,True,1992-01-01T00:00:00.000Z,43.216357,-112.399206
ID0060400,Shelley Police Department,4550,ID,Mountain,West,Region IV,BINGHAM,City,True,1992-01-01T00:00:00.000Z,43.381145,-112.12585
ID0070000,Blaine County Sheriff's Office,4551,ID,Mountain,West,Region IV,BLAINE,County,True,1992-01-01T00:00:00.000Z,43.394482,-113.95529
ID0070100,Ketchum Police Department,4552,ID,Mountain,West,Region IV,BLAINE,City,True,1992-01-01T00:00:00.000Z,43.394482,-113.95529
ID0070200,Sun Valley Police Department,4553,ID,Mountain,West,Region IV,BLAINE,City,True,1992-01-01T00:00:00.000Z,43.394482,-113.95529
ID0070300,Hailey Police Department,4554,ID,Mountain,West,Region IV,BLAINE,City,True,1992-03-01T00:00:00.000Z,43.51983,-114.31555
ID0070400,Bellevue Police Department,4555,ID,Mountain,West,Region IV,BLAINE,City,True,1992-03-01T00:00:00.000Z,43.394482,-113.95529
ID0080000,Boise County Sheriff's Office,4556,ID,Mountain,West,Region IV,BOISE,County,True,1993-01-01T00:00:00.000Z,43.987275,-115.71511
ID0080100,Idaho City Police Department,4557,ID,Mountain,West,Region IV,BOISE,City,False,1999-01-01T00:00:00.000Z,43.987275,-115.71511
ID0090000,Bonner County Sheriff's Office,4558,ID,Mountain,West,Region IV,BONNER,County,True,1992-01-01T00:00:00.000Z,48.307823,-116.55705
ID0090100,Priest River Police Department,4559,ID,Mountain,West,Region IV,BONNER,City,True,1992-01-01T00:00:00.000Z,48.312512,-116.59694
ID0090200,Sandpoint Police Department,4560,ID,Mountain,West,Region IV,BONNER,City,True,1993-01-01T00:00:00.000Z,48.272057,-116.56282
ID0090300,Ponderay Police Department,4561,ID,Mountain,West,Region IV,BONNER,City,True,1995-01-01T00:00:00.000Z,48.312512,-116.59694
ID0100000,Bonneville County Sheriff's Office,4562,ID,Mountain,West,Region IV,BONNEVILLE,County,True,1993-01-01T00:00:00.000Z,43.494877,-112.04055
ID0100200,Idaho Falls Police Department,4564,ID,Mountain,West,Region IV,BONNEVILLE,City,True,1993-01-01T00:00:00.000Z,43.395171,-111.621878
ID0110000,Boundary County Sheriff's Office,4566,ID,Mountain,West,Region IV,BOUNDARY,County,True,1992-01-01T00:00:00.000Z,48.773065,-116.524619
ID0110100,Bonners Ferry Police Department,4567,ID,Mountain,West,Region IV,BOUNDARY,City,True,1992-01-01T00:00:00.000Z,48.773065,-116.524619
ID0120000,Butte County Sheriff's Office,4568,ID,Mountain,West,Region IV,BUTTE,County,True,1992-01-01T00:00:00.000Z,43.6851,-113.177627
ID0130000,Camas County Sheriff's Office,4570,ID,Mountain,West,Region IV,CAMAS,County,True,2002-01-01T00:00:00.000Z,43.463396,-114.804427
ID0140000,Canyon County Sheriff's Office,4571,ID,Mountain,West,Region IV,CANYON,County,True,1992-01-01T00:00:00.000Z,43.66518,-116.68237
ID0140100,Caldwell Police Department,4572,ID,Mountain,West,Region IV,CANYON,City,True,1992-01-01T00:00:00.000Z,43.667896,-116.69103
ID0140200,Nampa Police Department,4573,ID,Mountain,West,Region IV,CANYON,City,True,1994-01-01T00:00:00.000Z,43.623051,-116.708527
ID0140300,Parma Police Department,4574,ID,Mountain,West,Region IV,CANYON,City,True,1993-01-01T00:00:00.000Z,43.623051,-116.708527
ID0140400,Wilder Police Department,4575,ID,Mountain,West,Region IV,CANYON,City,True,1992-01-01T00:00:00.000Z,43.623051,-116.708527
ID0140500,Middleton,26652,ID,Mountain,West,Region IV,CANYON,City,True,2017-01-01T00:00:00.000Z,,
ID0150000,Caribou County Sheriff's Office,4576,ID,Mountain,West,Region IV,CARIBOU,County,True,1992-01-01T00:00:00.000Z,42.65466,-111.5894
ID0150100,Soda Springs Police Department,4577,ID,Mountain,West,Region IV,CARIBOU,City,True,1992-08-01T00:00:00.000Z,42.786273,-111.544171
ID0160000,Cassia County Sheriff's Office,4579,ID,Mountain,West,Region IV,CASSIA,County,True,1992-01-01T00:00:00.000Z,42.535473,-113.79283
ID0170000,Clark County Sheriff's Office,4581,ID,Mountain,West,Region IV,CLARK,County,True,1992-01-01T00:00:00.000Z,44.286251,-112.36112
ID0180000,Clearwater County Sheriff's Office,4582,ID,Mountain,West,Region IV,CLEARWATER,County,True,1992-01-01T00:00:00.000Z,46.67257,-115.6535
ID0180100,Orofino Police Department,4583,ID,Mountain,West,Region IV,CLEARWATER,City,True,1992-01-01T00:00:00.000Z,46.67257,-115.6535
ID0190000,Custer County Sheriff's Office,4585,ID,Mountain,West,Region IV,CUSTER,County,True,1992-01-01T00:00:00.000Z,44.273341,-114.252251
ID0190300,Challis Police Department,4587,ID,Mountain,West,Region IV,CUSTER,City,True,2002-04-01T00:00:00.000Z,44.273341,-114.252251
ID0200000,Elmore County Sheriff's Office,4588,ID,Mountain,West,Region IV,ELMORE,County,True,1992-01-01T00:00:00.000Z,43.137493,-115.67231
ID0200200,Mountain Home Police Department,4590,ID,Mountain,West,Region IV,ELMORE,City,True,1992-01-01T00:00:00.000Z,43.394677,-115.471204
ID0210000,Franklin County Sheriff's Office,4591,ID,Mountain,West,Region IV,FRANKLIN,County,True,1992-01-01T00:00:00.000Z,42.096275,-111.87773
ID0210100,Preston Police Department,4592,ID,Mountain,West,Region IV,FRANKLIN,City,True,1992-07-01T00:00:00.000Z,42.09629,-111.87855
ID0220000,Fremont County Sheriff's Office,4593,ID,Mountain,West,Region IV,FREMONT,County,True,1992-01-01T00:00:00.000Z,44.218091,-111.484429
ID0220100,Ashton,28714,ID,Mountain,West,Region IV,FREMONT,City,True,2018-11-01T00:00:00.000Z,,
ID0220200,St. Anthony Police Department,4594,ID,Mountain,West,Region IV,FREMONT,City,True,1992-03-01T00:00:00.000Z,43.96253,-111.68202
ID0230000,Gem County Sheriff's Office,4595,ID,Mountain,West,Region IV,GEM,County,True,1992-02-01T00:00:00.000Z,43.87561,-116.495476
ID0230100,Emmett Police Department,4596,ID,Mountain,West,Region IV,GEM,City,True,1992-01-01T00:00:00.000Z,44.061473,-116.398784
ID0240000,Gooding County Sheriff's Office,4597,ID,Mountain,West,Region IV,GOODING,County,True,1992-01-01T00:00:00.000Z,42.939297,-114.712845
ID0240100,Gooding Police Department,4598,ID,Mountain,West,Region IV,GOODING,City,True,1992-01-01T00:00:00.000Z,42.940643,-114.715576
ID0240200,Wendell Police Department,4599,ID,Mountain,West,Region IV,GOODING,City,True,1993-01-01T00:00:00.000Z,42.973185,-114.82142
ID0240300,Hagerman Police Department,4600,ID,Mountain,West,Region IV,GOODING,City,True,1998-01-01T00:00:00.000Z,42.973185,-114.82142
ID0250000,Idaho County Sheriff's Office,4601,ID,Mountain,West,Region IV,IDAHO,County,True,1993-04-01T00:00:00.000Z,45.926365,-116.122665
ID0250100,Cottonwood Police Department,4602,ID,Mountain,West,Region IV,IDAHO,City,True,1997-07-01T00:00:00.000Z,45.849237,-115.467376
ID0250200,Grangeville Police Department,4603,ID,Mountain,West,Region IV,IDAHO,City,True,1994-03-01T00:00:00.000Z,45.92685,-116.12123
ID0260000,Jefferson County Sheriff's Office,4604,ID,Mountain,West,Region IV,JEFFERSON,County,True,1992-01-01T00:00:00.000Z,43.679657,-111.91145
ID0260100,Rigby Police Department,4605,ID,Mountain,West,Region IV,JEFFERSON,City,True,1992-01-01T00:00:00.000Z,43.796965,-112.318588
ID0270000,Jerome County Sheriff's Office,4606,ID,Mountain,West,Region IV,JEROME,County,True,1992-10-01T00:00:00.000Z,42.726112,-114.518456
ID0270100,Jerome Police Department,4607,ID,Mountain,West,Region IV,JEROME,City,True,1992-01-01T00:00:00.000Z,42.723957,-114.51839
ID0280000,Kootenai County Sheriff's Office,4608,ID,Mountain,West,Region IV,KOOTENAI,County,True,1993-09-01T00:00:00.000Z,47.677113,-116.694918
ID0280100,Coeur d'Alene Police Department,4609,ID,Mountain,West,Region IV,KOOTENAI,City,True,1992-01-01T00:00:00.000Z,47.715008,-116.80246
ID0280200,Post Falls Police Department,4610,ID,Mountain,West,Region IV,KOOTENAI,City,True,1997-07-01T00:00:00.000Z,47.714752,-116.92871
ID0280400,Spirit Lake Police Department,4612,ID,Mountain,West,Region IV,KOOTENAI,City,True,1993-01-01T00:00:00.000Z,47.677113,-116.694918
ID0280500,Rathdrum Police Department,4613,ID,Mountain,West,Region IV,KOOTENAI,City,True,2002-09-01T00:00:00.000Z,47.810562,-116.89777
ID0290000,Latah County Sheriff's Office,4614,ID,Mountain,West,Region IV,LATAH,County,True,1992-11-01T00:00:00.000Z,46.81892,-116.730974
ID0290500,Moscow Police Department,4615,ID,Mountain,West,Region IV,LATAH,City,True,1992-01-01T00:00:00.000Z,46.73173,-117.00105
ID0300000,Lemhi County Sheriff's Office,4617,ID,Mountain,West,Region IV,LEMHI,County,True,1993-06-01T00:00:00.000Z,44.928789,-113.887841
ID0300200,Salmon Police Department,4618,ID,Mountain,West,Region IV,LEMHI,City,True,1992-01-01T00:00:00.000Z,44.928789,-113.887841
ID0310000,Lewis County Sheriff's Office,4619,ID,Mountain,West,Region IV,LEWIS,County,True,1992-01-01T00:00:00.000Z,46.23299,-116.24048
ID0320000,Lincoln County Sheriff's Office,4621,ID,Mountain,West,Region IV,LINCOLN,County,True,1995-02-01T00:00:00.000Z,42.93367,-114.40767
ID0330000,Madison County Sheriff's Office,4623,ID,Mountain,West,Region IV,MADISON,County,True,1992-01-01T00:00:00.000Z,43.82606,-111.77962
ID0330100,Rexburg Police Department,4624,ID,Mountain,West,Region IV,MADISON,City,True,1992-01-01T00:00:00.000Z,43.789709,-111.65655
ID0340000,Minidoka County Sheriff's Office,4625,ID,Mountain,West,Region IV,MINIDOKA,County,True,1992-01-01T00:00:00.000Z,42.856937,-113.64001
ID0340100,Rupert Police Department,4626,ID,Mountain,West,Region IV,MINIDOKA,City,True,1992-09-01T00:00:00.000Z,42.856937,-113.64001
ID0340200,Heyburn Police Department,4627,ID,Mountain,West,Region IV,MINIDOKA,City,True,1992-01-01T00:00:00.000Z,42.856937,-113.64001
ID0350000,Nez Perce County Sheriff's Office,4628,ID,Mountain,West,Region IV,NEZ PERCE,County,True,1992-01-01T00:00:00.000Z,46.333766,-116.760903
ID0350200,Lewiston Police Department,4630,ID,Mountain,West,Region IV,NEZ PERCE,City,True,1992-01-01T00:00:00.000Z,46.4178,-117.01638
ID0360000,Oneida County Sheriff's Office,4631,ID,Mountain,West,Region IV,ONEIDA,County,True,1992-01-01T00:00:00.000Z,42.186516,-112.244606
ID0370000,Owyhee County Sheriff's Office,4633,ID,Mountain,West,Region IV,OWYHEE,County,True,1993-01-01T00:00:00.000Z,42.593063,-116.142655
ID0370100,Homedale Police Department,4634,ID,Mountain,West,Region IV,OWYHEE,City,True,1992-01-01T00:00:00.000Z,42.593063,-116.142655
ID0380000,Payette County Sheriff's Office,4635,ID,Mountain,West,Region IV,PAYETTE,County,True,1992-01-01T00:00:00.000Z,44.07812,-116.93004
ID0380100,Fruitland Police Department,4636,ID,Mountain,West,Region IV,PAYETTE,City,True,1992-01-01T00:00:00.000Z,44.00274,-116.748655
ID0380300,Payette Police Department,4638,ID,Mountain,West,Region IV,PAYETTE,City,True,1992-01-01T00:00:00.000Z,44.0748,-116.9365
ID0390000,Power County Sheriff's Office,4639,ID,Mountain,West,Region IV,POWER,County,True,1992-01-01T00:00:00.000Z,42.782623,-112.848564
ID0390100,American Falls Police Department,4640,ID,Mountain,West,Region IV,POWER,City,True,1992-01-01T00:00:00.000Z,42.694126,-112.844407
ID0400000,Shoshone County Sheriff's Office,4641,ID,Mountain,West,Region IV,SHOSHONE,County,True,1992-01-01T00:00:00.000Z,47.471626,-115.92217
ID0400100,Kellogg Police Department,4642,ID,Mountain,West,Region IV,SHOSHONE,City,True,1992-01-01T00:00:00.000Z,47.538784,-116.13882
ID0400300,Osburn Police Department,4644,ID,Mountain,West,Region IV,SHOSHONE,City,True,1992-03-01T00:00:00.000Z,47.347694,-115.885092
ID0400400,Pinehurst Police Department,4645,ID,Mountain,West,Region IV,SHOSHONE,City,True,1992-01-01T00:00:00.000Z,47.347694,-115.885092
ID0410000,Teton County Sheriff's Office,4647,ID,Mountain,West,Region IV,TETON,County,True,1992-01-01T00:00:00.000Z,43.760994,-111.211765
ID0420000,Twin Falls County Sheriff's Office,4649,ID,Mountain,West,Region IV,TWIN FALLS,County,True,1992-01-01T00:00:00.000Z,42.352309,-114.665639
ID0420100,Buhl Police Department,4650,ID,Mountain,West,Region IV,TWIN FALLS,City,True,1992-04-01T00:00:00.000Z,42.599926,-114.761
ID0420200,Twin Falls Police Department,4651,ID,Mountain,West,Region IV,TWIN FALLS,City,True,1992-01-01T00:00:00.000Z,42.352309,-114.665639
ID0420300,Kimberly Police Department,4652,ID,Mountain,West,Region IV,TWIN FALLS,City,True,1993-08-01T00:00:00.000Z,42.352309,-114.665639
ID0420400,Filer Police Department,4653,ID,Mountain,West,Region IV,TWIN FALLS,City,True,1992-01-01T00:00:00.000Z,42.352309,-114.665639
ID0430000,Valley County Sheriff's Office,4654,ID,Mountain,West,Region IV,VALLEY,County,True,1992-01-01T00:00:00.000Z,44.771531,-115.637875
ID0430100,McCall Police Department,4655,ID,Mountain,West,Region IV,VALLEY,City,True,1992-01-01T00:00:00.000Z,44.909325,-116.098175
ID0440000,Washington County Sheriff's Office,4657,ID,Mountain,West,Region IV,WASHINGTON,County,True,1992-01-01T00:00:00.000Z,44.24683,-116.965866
ID0440100,Weiser Police Department,4658,ID,Mountain,West,Region IV,WASHINGTON,City,True,1992-01-01T00:00:00.000Z,44.24683,-116.965866
IDDI00400,Nez Perce Tribal,4659,ID,Mountain,West,Region IV,NOT SPECIFIED,Tribal,True,2021-01-01T00:00:00.000Z,46.333766,-116.760903
IDDI00900,Coeur d'Alene Tribal,4660,ID,Mountain,West,Region IV,NOT SPECIFIED,Tribal,True,2021-01-01T00:00:00.000Z,47.218451,-116.633541
IDDI01100,Kootenai Tribal,25325,ID,Mountain,West,Region IV,NOT SPECIFIED,Tribal,True,2021-01-01T00:00:00.000Z,,
IDISP0000,Idaho State Police,4668,ID,Mountain,West,Region IV,NOT SPECIFIED,State Police,True,2004-03-01T00:00:00.000Z,43.598454,-116.384605
IDLOT0000,Idaho State Lottery Security Division,30535,ID,Mountain,West,Region IV,NOT SPECIFIED,Other State Agency,True,2020-01-01T00:00:00.000Z,,
