ori,agency_name,agency_id,state_abbr,division_name,region_name,region_desc,county_name,agency_type_name,nibrs,nibrs_start_date,latitude,longitude
MD0010000,Allegany County Sheriff's Office,7891,MD,South Atlantic,South,Region III,ALLEGANY,County,True,2021-01-01T00:00:00.000Z,39.666405,-78.76458
MD0010200,Cumberland Police Department,7892,MD,South Atlantic,South,Region III,ALLEGANY,City,True,2021-01-01T00:00:00.000Z,39.612309,-78.703108
MD0010300,Frostburg Police Department,7893,MD,South Atlantic,South,Region III,ALLEGANY,City,True,2021-01-01T00:00:00.000Z,39.612309,-78.703108
MD0010500,Luke Police Department,7895,MD,South Atlantic,South,Region III,ALLEGANY,City,False,,39.612309,-78.703108
MD0010800,Frostburg State University,7898,MD,South Atlantic,South,Region III,ALLEGANY,University or College,True,2021-01-01T00:00:00.000Z,39.648335,-78.932556
MD0020000,Anne Arundel County Sheriff's Office,7901,MD,South Atlantic,South,Region III,ANNE ARUNDEL,County,False,,38.993374,-76.560511
MD0020100,Annapolis Police Department,7902,MD,South Atlantic,South,Region III,ANNE ARUNDEL,City,False,,38.993374,-76.560511
MD0020200,Anne Arundel County Police Department,7903,MD,South Atlantic,South,Region III,ANNE ARUNDEL,County,False,,38.993374,-76.560511
MD0020500,Natural Resources Police,7906,MD,South Atlantic,South,Region III,NOT SPECIFIED,Other State Agency,True,2021-01-01T00:00:00.000Z,38.982986,-76.50547
MD0020700,"General Services: Annapolis, Anne Arundel County",7908,MD,South Atlantic,South,Region III,ANNE ARUNDEL,Other State Agency,False,,38.981647,-76.49357
MD0021000,Comptroller of the Treasury Field Enforcement Division,7909,MD,South Atlantic,South,Region III,NOT SPECIFIED,Other State Agency,True,2021-01-01T00:00:00.000Z,39.300214,-76.610516
MD0022600,Alcohol Tobacco Commission,33782,MD,South Atlantic,South,Region III,NOT SPECIFIED,Other State Agency,True,2022-01-01T00:00:00.000Z,,
MD0023C00,Department of Public Safety and Correctional Services Internal Investigations Unit,7910,MD,South Atlantic,South,Region III,ANNE ARUNDEL,Other State Agency,True,2021-01-01T00:00:00.000Z,39.252264,-76.924406
MD0030000,Baltimore County,7911,MD,South Atlantic,South,Region III,BALTIMORE,County,False,2023-03-01T00:00:00.000Z,39.40001,-76.608505
MD0030100,Baltimore County Police Department,7912,MD,South Atlantic,South,Region III,BALTIMORE,County,True,2021-01-01T00:00:00.000Z,39.40067,-76.59157
MD0030400,University of Maryland: Baltimore County,7915,MD,South Atlantic,South,Region III,BALTIMORE,University or College,True,2021-01-01T00:00:00.000Z,39.262264,-76.7104
MD0030500,Towson University,7916,MD,South Atlantic,South,Region III,BALTIMORE,University or College,True,2022-01-01T00:00:00.000Z,39.390472,-76.605255
MD0040100,Transportation Authority,7918,MD,South Atlantic,South,Region III,NOT SPECIFIED,Other State Agency,True,2021-01-01T00:00:00.000Z,39.241283,-76.593216
MD0040200,University of Maryland: Baltimore City,7919,MD,South Atlantic,South,Region III,NOT SPECIFIED,University or College,True,2022-01-01T00:00:00.000Z,39.243973,-76.51018
MD0040400,Morgan State University,7921,MD,South Atlantic,South,Region III,NOT SPECIFIED,University or College,False,,39.34532,-76.5811
MD0040600,Baltimore City Sheriff's Office,7922,MD,South Atlantic,South,Region III,NOT SPECIFIED,City,False,,39.23499,-76.61133
MD0040700,University of Baltimore,7923,MD,South Atlantic,South,Region III,NOT SPECIFIED,University or College,False,,39.306686,-76.6163
MD0040800,State Fire Marshal,7924,MD,South Atlantic,South,Region III,NOT SPECIFIED,Other State Agency,True,2022-01-01T00:00:00.000Z,39.374363,-76.722824
MD0040900,General Services: Baltimore City,7925,MD,South Atlantic,South,Region III,NOT SPECIFIED,Other State Agency,False,,39.300214,-76.610516
MD0041000,Coppin State University,7926,MD,South Atlantic,South,Region III,NOT SPECIFIED,University or College,True,2022-01-01T00:00:00.000Z,39.30948,-76.65725
MD0041200,Transit Administration,7927,MD,South Atlantic,South,Region III,NOT SPECIFIED,Other State Agency,True,2021-01-01T00:00:00.000Z,39.169544,-76.525665
MD0050000,Calvert County Sheriff's Office,7928,MD,South Atlantic,South,Region III,CALVERT,County,False,,38.539024,-76.58306
MD0060000,Caroline County Sheriff's Office,7931,MD,South Atlantic,South,Region III,CAROLINE,County,False,,38.88757,-75.833626
MD0060100,Denton Police Department,7932,MD,South Atlantic,South,Region III,CAROLINE,City,True,2021-01-01T00:00:00.000Z,38.884975,-75.83208
MD0060200,Federalsburg Police Department,7933,MD,South Atlantic,South,Region III,CAROLINE,City,False,2023-01-01T00:00:00.000Z,38.871531,-75.831631
MD0060300,Greensboro Police Department,7934,MD,South Atlantic,South,Region III,CAROLINE,City,False,,38.871531,-75.831631
MD0060500,Ridgely Police Department,7936,MD,South Atlantic,South,Region III,CAROLINE,City,False,,38.871531,-75.831631
MD0070000,Carroll County Sheriff's Office,7939,MD,South Atlantic,South,Region III,CARROLL,County,True,2022-01-01T00:00:00.000Z,39.57283,-76.986015
MD0070100,Hampstead Police Department,7940,MD,South Atlantic,South,Region III,CARROLL,City,True,2021-01-01T00:00:00.000Z,39.60286,-76.85297
MD0070200,Manchester Police Department,7941,MD,South Atlantic,South,Region III,CARROLL,City,True,2022-01-01T00:00:00.000Z,39.563189,-77.015512
MD0070300,Mount Airy,27573,MD,South Atlantic,South,Region III,"CARROLL, FREDERICK",City,True,2022-01-01T00:00:00.000Z,,
MD0070500,Sykesville Police Department,7943,MD,South Atlantic,South,Region III,CARROLL,City,True,2021-01-01T00:00:00.000Z,39.563189,-77.015512
MD0070600,Taneytown Police Department,7944,MD,South Atlantic,South,Region III,CARROLL,City,False,,39.657906,-77.17434
MD0070800,Westminster Police Department,7946,MD,South Atlantic,South,Region III,CARROLL,City,True,2022-01-01T00:00:00.000Z,39.57562,-76.99303
MD0080000,Cecil County Sheriff's Office,7949,MD,South Atlantic,South,Region III,CECIL,County,True,2022-01-01T00:00:00.000Z,39.562352,-75.941584
MD0080400,Elkton Police Department,7953,MD,South Atlantic,South,Region III,CECIL,City,True,2022-01-01T00:00:00.000Z,39.610645,-75.83182
MD0080500,North East Police Department,7954,MD,South Atlantic,South,Region III,CECIL,City,False,,39.600956,-75.94476
MD0080700,Rising Sun Police Department,7956,MD,South Atlantic,South,Region III,CECIL,City,False,,39.562352,-75.941584
MD0081500,Perryville Police Department,7957,MD,South Atlantic,South,Region III,CECIL,City,True,2022-01-01T00:00:00.000Z,39.562352,-75.941584
MD0090000,Charles County Sheriff's Office,7958,MD,South Atlantic,South,Region III,CHARLES,County,True,2022-01-01T00:00:00.000Z,38.472853,-77.015427
MD0090100,La Plata Police Department,7959,MD,South Atlantic,South,Region III,CHARLES,City,True,2022-01-01T00:00:00.000Z,38.472853,-77.015427
MD0100000,Dorchester County Sheriff's Office,7960,MD,South Atlantic,South,Region III,DORCHESTER,County,False,,38.54878,-76.05912
MD0100100,Cambridge Police Department,7961,MD,South Atlantic,South,Region III,DORCHESTER,City,True,2022-01-01T00:00:00.000Z,38.56043,-76.06745
MD0100300,Hurlock Police Department,7962,MD,South Atlantic,South,Region III,DORCHESTER,City,True,2022-01-01T00:00:00.000Z,38.429196,-76.047433
MD0110000,Frederick County Sheriff's Office,7963,MD,South Atlantic,South,Region III,FREDERICK,County,True,2022-01-01T00:00:00.000Z,39.414253,-77.41244
MD0110100,Brunswick Police Department,7964,MD,South Atlantic,South,Region III,FREDERICK,City,True,2022-01-01T00:00:00.000Z,39.313354,-77.626495
MD0110300,Frederick Police Department,7966,MD,South Atlantic,South,Region III,FREDERICK,City,True,2022-01-01T00:00:00.000Z,39.414253,-77.41244
MD0110400,Thurmont Police Department,7967,MD,South Atlantic,South,Region III,FREDERICK,City,True,2022-01-01T00:00:00.000Z,39.470429,-77.397624
MD0120000,Garrett County Sheriff's Office,7969,MD,South Atlantic,South,Region III,GARRETT,County,True,2021-01-01T00:00:00.000Z,39.407803,-79.40712
MD0120200,Oakland Police Department,7970,MD,South Atlantic,South,Region III,GARRETT,City,True,2021-01-01T00:00:00.000Z,39.410545,-79.405556
MD0130000,Harford County Sheriff's Office,7972,MD,South Atlantic,South,Region III,HARFORD,County,False,,39.537429,-76.299789
MD0130100,Aberdeen Police Department,7973,MD,South Atlantic,South,Region III,HARFORD,City,False,,39.50897,-76.16605
MD0130200,Bel Air Police Department,7974,MD,South Atlantic,South,Region III,HARFORD,City,False,,39.53719,-76.34771
MD0130300,Havre de Grace Police Department,7975,MD,South Atlantic,South,Region III,HARFORD,City,False,,39.548725,-76.09505
MD0140000,Howard County Sheriff's Office,7976,MD,South Atlantic,South,Region III,HOWARD,County,True,2022-01-01T00:00:00.000Z,39.252264,-76.924406
MD0140100,Howard County Police Department,7977,MD,South Atlantic,South,Region III,HOWARD,County,True,2021-01-01T00:00:00.000Z,39.276688,-76.80677
MD0150000,Kent County Sheriff's Office,7978,MD,South Atlantic,South,Region III,KENT,County,False,,39.223495,-76.08744
MD0150200,Chestertown Police Department,7979,MD,South Atlantic,South,Region III,KENT,City,False,,39.20739,-76.06787
MD0150400,Rock Hall Police Department,7980,MD,South Atlantic,South,Region III,KENT,City,False,,39.239178,-76.124203
MD0160000,Montgomery County Sheriff's Office,7981,MD,South Atlantic,South,Region III,MONTGOMERY,County,True,2022-01-01T00:00:00.000Z,39.084175,-77.15236
MD0160100,Chevy Chase Village Police Department,7982,MD,South Atlantic,South,Region III,MONTGOMERY,City,True,2022-01-01T00:00:00.000Z,38.97001,-77.07716
MD0160300,Maryland-National Capital Park Police: Montgomery County,7984,MD,South Atlantic,South,Region III,MONTGOMERY,Other,False,,39.137381,-77.203063
MD0160400,Montgomery County Police Department,7985,MD,South Atlantic,South,Region III,MONTGOMERY,County,True,2016-01-01T00:00:00.000Z,39.10462,-77.18817
MD0160600,Takoma Park Police Department,7987,MD,South Atlantic,South,Region III,MONTGOMERY,City,True,2022-01-01T00:00:00.000Z,38.98107,-77.01026
MD0170100,Berwyn Heights Police Department,7990,MD,South Atlantic,South,Region III,PRINCE GEORGE'S,City,False,,38.82588,-76.847272
MD0170200,Bladensburg Police Department,7991,MD,South Atlantic,South,Region III,PRINCE GEORGE'S,City,False,,38.942184,-76.9332
MD0170300,Brentwood Police Department,7992,MD,South Atlantic,South,Region III,PRINCE GEORGE'S,City,False,,38.82588,-76.847272
MD0170400,Capitol Heights Police Department,7993,MD,South Atlantic,South,Region III,PRINCE GEORGE'S,City,False,,38.88479,-76.91365
MD0170500,Cheverly Police Department,7994,MD,South Atlantic,South,Region III,PRINCE GEORGE'S,City,False,,38.92485,-76.90804
MD0170700,Colmar Manor Police Department,7996,MD,South Atlantic,South,Region III,PRINCE GEORGE'S,City,False,,38.931614,-76.9506
MD0170800,Cottage City Police Department,7997,MD,South Atlantic,South,Region III,PRINCE GEORGE'S,City,False,,38.937958,-76.95124
MD0170900,District Heights Police Department,7998,MD,South Atlantic,South,Region III,PRINCE GEORGE'S,City,False,,38.861942,-76.8831
MD0171000,Edmonston Police Department,7999,MD,South Atlantic,South,Region III,PRINCE GEORGE'S,City,False,,38.94848,-76.930695
MD0171100,Fairmount Heights Police Department,8000,MD,South Atlantic,South,Region III,PRINCE GEORGE'S,City,False,,38.82588,-76.847272
MD0171200,Forest Heights Police Department,8001,MD,South Atlantic,South,Region III,PRINCE GEORGE'S,City,False,2021-01-01T00:00:00.000Z,38.81432,-76.998085
MD0171300,Glenarden Police Department,8002,MD,South Atlantic,South,Region III,PRINCE GEORGE'S,City,False,,38.932167,-76.86496
MD0171400,Greenbelt Police Department,8003,MD,South Atlantic,South,Region III,PRINCE GEORGE'S,City,False,,38.82588,-76.847272
MD0171500,Hyattsville Police Department,8004,MD,South Atlantic,South,Region III,PRINCE GEORGE'S,City,False,,38.95264,-76.94278
MD0171600,Landover Hills Police Department,8005,MD,South Atlantic,South,Region III,PRINCE GEORGE'S,City,True,2022-01-01T00:00:00.000Z,38.82588,-76.847272
MD0171700,Laurel Police Department,8006,MD,South Atlantic,South,Region III,PRINCE GEORGE'S,City,True,2022-01-01T00:00:00.000Z,39.10615,-76.8445
MD0171800,Morningside Police Department,8007,MD,South Atlantic,South,Region III,PRINCE GEORGE'S,City,False,,38.828236,-76.88845
MD0171900,Mount Rainier Police Department,8008,MD,South Atlantic,South,Region III,PRINCE GEORGE'S,City,False,,38.93662,-76.960335
MD0172100,Prince George's County Police Department,8010,MD,South Atlantic,South,Region III,PRINCE GEORGE'S,County,True,2019-05-01T00:00:00.000Z,38.890705,-76.87062
MD0172200,Riverdale Park Police Department,8011,MD,South Atlantic,South,Region III,PRINCE GEORGE'S,City,False,2021-01-01T00:00:00.000Z,38.96182,-76.929344
MD0172300,Seat Pleasant Police Department,8012,MD,South Atlantic,South,Region III,PRINCE GEORGE'S,City,False,,38.82588,-76.847272
MD0172400,Upper Marlboro Police Department,8013,MD,South Atlantic,South,Region III,PRINCE GEORGE'S,City,True,2022-01-01T00:00:00.000Z,38.82588,-76.847272
MD0172500,University of Maryland: College Park,8014,MD,South Atlantic,South,Region III,PRINCE GEORGE'S,University or College,True,2022-01-01T00:00:00.000Z,38.82588,-76.847272
MD0172600,University Park Police Department,8015,MD,South Atlantic,South,Region III,PRINCE GEORGE'S,City,True,2022-01-01T00:00:00.000Z,38.971817,-76.93812
MD0172700,Maryland-National Capital Park Police: Prince George's County,8016,MD,South Atlantic,South,Region III,PRINCE GEORGE'S,Other,True,2022-01-01T00:00:00.000Z,38.961777,-76.902405
MD0172800,Bowie State University,8017,MD,South Atlantic,South,Region III,PRINCE GEORGE'S,University or College,False,,39.01692,-76.764175
MD0173100,Prince George's County Community College,26980,MD,South Atlantic,South,Region III,PRINCE GEORGE'S,University or College,False,,,
MD0173900,New Carrollton Police Department,8019,MD,South Atlantic,South,Region III,PRINCE GEORGE'S,City,False,,38.82588,-76.847272
MD0174100,Bowie Police Department,8020,MD,South Atlantic,South,Region III,PRINCE GEORGE'S,City,True,2020-01-01T00:00:00.000Z,38.960632,-76.74079
MD0180000,Queen Anne's County Sheriff's Office,8021,MD,South Atlantic,South,Region III,QUEEN ANNE'S,County,True,2022-01-01T00:00:00.000Z,39.039867,-76.05774
MD0180100,Centreville Police Department,8022,MD,South Atlantic,South,Region III,QUEEN ANNE'S,City,True,2022-01-01T00:00:00.000Z,39.040693,-76.082405
MD0190000,St. Mary's County Sheriff's Office,8023,MD,South Atlantic,South,Region III,ST MARY'S,County,True,2021-01-01T00:00:00.000Z,38.220289,-76.530384
MD0190200,St. Mary's College,8025,MD,South Atlantic,South,Region III,ST MARY'S,University or College,False,,38.220289,-76.530384
MD0200000,Somerset County Sheriff's Office,8026,MD,South Atlantic,South,Region III,SOMERSET,County,False,,38.128025,-75.703735
MD0200100,Crisfield Police Department,8027,MD,South Atlantic,South,Region III,SOMERSET,City,False,,38.07445,-75.853323
MD0200200,Princess Anne Police Department,8028,MD,South Atlantic,South,Region III,SOMERSET,City,False,,38.204746,-75.695564
MD0200300,University of Maryland: Eastern Shore,8029,MD,South Atlantic,South,Region III,SOMERSET,University or College,True,2022-01-01T00:00:00.000Z,38.07445,-75.853323
MD0210000,Talbot County Sheriff's Office,8030,MD,South Atlantic,South,Region III,TALBOT,County,True,2021-01-01T00:00:00.000Z,38.77446,-76.0794
MD0210100,Easton Police Department,8031,MD,South Atlantic,South,Region III,TALBOT,City,True,2021-01-01T00:00:00.000Z,38.749427,-76.17913
MD0210200,Oxford Police Department,8032,MD,South Atlantic,South,Region III,TALBOT,City,False,,38.749427,-76.17913
MD0210300,St. Michaels Police Department,8033,MD,South Atlantic,South,Region III,TALBOT,City,True,2021-01-01T00:00:00.000Z,38.749427,-76.17913
MD0220000,Washington County Sheriff's Office,8035,MD,South Atlantic,South,Region III,WASHINGTON,County,True,2021-01-01T00:00:00.000Z,39.603621,-77.814671
MD0220100,Boonsboro Police Department,8036,MD,South Atlantic,South,Region III,WASHINGTON,City,True,2021-01-01T00:00:00.000Z,39.50421,-77.659164
MD0220300,Hagerstown Police Department,8037,MD,South Atlantic,South,Region III,WASHINGTON,City,True,2021-01-01T00:00:00.000Z,39.603621,-77.814671
MD0220400,Hancock Police Department,8038,MD,South Atlantic,South,Region III,WASHINGTON,City,True,2021-01-01T00:00:00.000Z,39.700485,-78.182434
MD0220500,Smithsburg Police Department,8039,MD,South Atlantic,South,Region III,WASHINGTON,City,True,2021-01-01T00:00:00.000Z,39.603621,-77.814671
MD0221100,Hagerstown Community College,8042,MD,South Atlantic,South,Region III,WASHINGTON,University or College,True,2021-01-01T00:00:00.000Z,39.628006,-77.66536
MD0230000,Wicomico County Sheriff's Office,8043,MD,South Atlantic,South,Region III,WICOMICO,County,False,,38.36716,-75.632027
MD0230100,Delmar Police Department,8044,MD,South Atlantic,South,Region III,WICOMICO,City,False,,38.45321,-75.57827
MD0230200,Fruitland Police Department,8045,MD,South Atlantic,South,Region III,WICOMICO,City,True,2022-01-01T00:00:00.000Z,38.36716,-75.632027
MD0230300,Salisbury Police Department,8046,MD,South Atlantic,South,Region III,WICOMICO,City,True,2022-01-01T00:00:00.000Z,38.36716,-75.632027
MD0230400,Salisbury University,8047,MD,South Atlantic,South,Region III,WICOMICO,University or College,True,2022-01-01T00:00:00.000Z,38.349846,-75.607445
MD0230700,Pittsville,33497,MD,South Atlantic,South,Region III,WICOMICO,City,True,2021-01-01T00:00:00.000Z,,
MD0240000,Worcester County Sheriff's Office,8048,MD,South Atlantic,South,Region III,WORCESTER,County,True,2022-01-01T00:00:00.000Z,38.176865,-75.39335
MD0240100,Berlin Police Department,8049,MD,South Atlantic,South,Region III,WORCESTER,City,False,,38.324543,-75.21857
MD0240200,Ocean City Police Department,8050,MD,South Atlantic,South,Region III,WORCESTER,City,False,,38.222133,-75.309931
MD0240300,Pocomoke City Police Department,8051,MD,South Atlantic,South,Region III,WORCESTER,City,False,,38.222133,-75.309931
MD0240400,Snow Hill Police Department,8052,MD,South Atlantic,South,Region III,WORCESTER,City,False,2023-01-01T00:00:00.000Z,38.1766,-75.39494
MD0240500,Ocean Pines Police Department,8053,MD,South Atlantic,South,Region III,WORCESTER,City,True,2022-01-01T00:00:00.000Z,38.39765,-75.16003
MD300SP00,State Police: Baltimore City,8054,MD,South Atlantic,South,Region III,NOT SPECIFIED,State Police,True,2021-01-01T00:00:00.000Z,39.32253,-76.62148
MDBPD0000,Baltimore Police Department,8079,MD,South Atlantic,South,Region III,BALTIMORE CITY,City,True,2021-07-01T00:00:00.000Z,39.32253,-76.62148
MDMSP0000,Maryland State Police,8080,MD,South Atlantic,South,Region III,UNMAPPED COUNTY,State Police,False,,39.374363,-76.722824
MDMSP0100,State Police:,22662,MD,South Atlantic,South,Region III,HOWARD,State Police,True,2021-01-01T00:00:00.000Z,,
MDMSP0200,State Police:,32337,MD,South Atlantic,South,Region III,CARROLL,State Police,True,2021-01-01T00:00:00.000Z,,
MDMSP0300,State Police:,22663,MD,South Atlantic,South,Region III,PRINCE GEORGE'S,State Police,True,2021-01-01T00:00:00.000Z,,
MDMSP0400,State Police:,32357,MD,South Atlantic,South,Region III,MONTGOMERY,State Police,True,2021-01-01T00:00:00.000Z,,
MDMSP2000,State Police:,22664,MD,South Atlantic,South,Region III,FREDERICK,State Police,True,2021-01-01T00:00:00.000Z,,
MDMSP2100,State Police:,32335,MD,South Atlantic,South,Region III,ALLEGANY,State Police,True,2021-01-01T00:00:00.000Z,,
MDMSP2200,State Police:,32358,MD,South Atlantic,South,Region III,WASHINGTON,State Police,True,2021-01-01T00:00:00.000Z,,
MDMSP2300,State Police:,32297,MD,South Atlantic,South,Region III,GARRETT,State Police,True,2021-01-01T00:00:00.000Z,,
MDMSP3000,State Police:,32298,MD,South Atlantic,South,Region III,HARFORD,State Police,True,2021-01-01T00:00:00.000Z,,
MDMSP3100,State Police:,22665,MD,South Atlantic,South,Region III,CECIL,State Police,True,2021-01-01T00:00:00.000Z,,
MDMSP3400,State Police: ,22666,MD,South Atlantic,South,Region III,BALTIMORE,State Police,True,2021-01-01T00:00:00.000Z,,
MDMSP4000,State Police:,26020,MD,South Atlantic,South,Region III,TALBOT,State Police,True,2021-01-01T00:00:00.000Z,,
MDMSP4100,State Police:,32359,MD,South Atlantic,South,Region III,WICOMICO,State Police,True,2021-01-01T00:00:00.000Z,,
MDMSP4200,State Police:,27107,MD,South Atlantic,South,Region III,QUEEN ANNE'S,State Police,True,2021-01-01T00:00:00.000Z,,
MDMSP4300,State Police:,32295,MD,South Atlantic,South,Region III,CAROLINE,State Police,True,2021-01-01T00:00:00.000Z,,
MDMSP4400,State Police:,32356,MD,South Atlantic,South,Region III,KENT,State Police,True,2021-01-01T00:00:00.000Z,,
MDMSP4500,State Police:,32354,MD,South Atlantic,South,Region III,DORCHESTER,State Police,True,2021-01-01T00:00:00.000Z,,
MDMSP4700,State Police:,22667,MD,South Atlantic,South,Region III,SOMERSET,State Police,True,2021-01-01T00:00:00.000Z,,
MDMSP4800,State Police:,22668,MD,South Atlantic,South,Region III,WORCESTER,State Police,True,2021-01-01T00:00:00.000Z,,
MDMSP5000,State Police: ,26754,MD,South Atlantic,South,Region III,CHARLES,State Police,True,2021-01-01T00:00:00.000Z,,
MDMSP5200,State Police:,26572,MD,South Atlantic,South,Region III,ANNE ARUNDEL,State Police,True,2021-01-01T00:00:00.000Z,,
MDMSP5400,State Police:,32299,MD,South Atlantic,South,Region III,ST MARY'S,State Police,True,2021-01-01T00:00:00.000Z,,
MDMSP5500,State Police:,32336,MD,South Atlantic,South,Region III,CALVERT,State Police,True,2021-01-01T00:00:00.000Z,,
MDMSP9800,Maryland State Police Statewide,33789,MD,South Atlantic,South,Region III,NOT SPECIFIED,State Police,True,2021-01-01T00:00:00.000Z,,
